{
  "type": "FeatureCollection",
  "features": [
    {
      "type": "Feature",
      "properties": {
        "number": "de:14612:1",
        "nameWithCity": "Dresden Bahnhof Mitte",
        "name": "Bahnhof Mitte",
        "city": "Dresden",
        "tariffZone1": "0100",
        "tariffZone2": "",
        "tariffZone3": ""
      },
      "geometry": {
        "type": "Point",
        "coordinates": [
          13.723395,
          51.055642
        ]
      }
    },
    {
      "type": "Feature",
      "properties": {
        "number": "de:14612:3",
        "nameWithCity": "Dresden Prager Straße",
        "name": "Prager Straße",
        "city": "Dresden",
        "tariffZone1": "0100",
        "tariffZone2": "",
        "tariffZone3": ""
      },
      "geometry": {
        "type": "Point",
        "coordinates": [
          13.737826,
          51.047148
        ]
      }
    },
    {
      "type": "Feature",
      "properties": {
        "number": "de:14612:4",
        "nameWithCity": "Dresden Altmarkt",
        "name": "Altmarkt",
        "city": "Dresden",
        "tariffZone1": "0100",
        "tariffZone2": "",
        "tariffZone3": ""
      },
      "geometry": {
        "type": "Point",
        "coordinates": [
          13.738498,
          51.050249
        ]
      }
    },
    {
      "type": "Feature",
      "properties": {
        "number": "de:14612:5",
        "nameWithCity": "Dresden Pirnaischer Platz",
        "name": "Pirnaischer Platz",
        "city": "Dresden",
        "tariffZone1": "0100",
        "tariffZone2": "",
        "tariffZone3": ""
      },
      "geometry": {
        "type": "Point",
        "coordinates": [
          13.743974,
          51.049475
        ]
      }
    },
    {
      "type": "Feature",
      "properties": {
        "number": "de:14612:6",
        "nameWithCity": "DD Deutsches Hygiene-Museum",
        "name": "Deutsches Hygiene-Museum",
        "city": "Dresden",
        "tariffZone1": "0100",
        "tariffZone2": "",
        "tariffZone3": ""
      },
      "geometry": {
        "type": "Point",
        "coordinates": [
          13.75008,
          51.04763
        ]
      }
    },
    {
      "type": "Feature",
      "properties": {
        "number": "de:14612:7",
        "nameWithCity": "Dresden Straßburger Platz",
        "name": "Straßburger Platz",
        "city": "Dresden",
        "tariffZone1": "0100",
        "tariffZone2": "",
        "tariffZone3": ""
      },
      "geometry": {
        "type": "Point",
        "coordinates": [
          13.754985,
          51.04611
        ]
      }
    },
    {
      "type": "Feature",
      "properties": {
        "number": "de:14612:8",
        "nameWithCity": "Dresden Großer Garten",
        "name": "Großer Garten",
        "city": "Dresden",
        "tariffZone1": "0100",
        "tariffZone2": "",
        "tariffZone3": ""
      },
      "geometry": {
        "type": "Point",
        "coordinates": [
          13.751329,
          51.042569
        ]
      }
    },
    {
      "type": "Feature",
      "properties": {
        "number": "de:14612:9",
        "nameWithCity": "Dresden Dürerstraße",
        "name": "Dürerstraße",
        "city": "Dresden",
        "tariffZone1": "0100",
        "tariffZone2": "",
        "tariffZone3": ""
      },
      "geometry": {
        "type": "Point",
        "coordinates": [
          13.757915,
          51.051918
        ]
      }
    },
    {
      "type": "Feature",
      "properties": {
        "number": "de:14612:10",
        "nameWithCity": "Dresden Sachsenallee",
        "name": "Sachsenallee",
        "city": "Dresden",
        "tariffZone1": "0100",
        "tariffZone2": "",
        "tariffZone3": ""
      },
      "geometry": {
        "type": "Point",
        "coordinates": [
          13.757375,
          51.054605
        ]
      }
    },
    {
      "type": "Feature",
      "properties": {
        "number": "de:14612:11",
        "nameWithCity": "Dresden Rosa-Luxemburg-Platz",
        "name": "Rosa-Luxemburg-Platz",
        "city": "Dresden",
        "tariffZone1": "0100",
        "tariffZone2": "",
        "tariffZone3": ""
      },
      "geometry": {
        "type": "Point",
        "coordinates": [
          13.752917,
          51.059319
        ]
      }
    },
    {
      "type": "Feature",
      "properties": {
        "number": "de:14612:12",
        "nameWithCity": "DD Bautzner/Rothenburger Str.",
        "name": "Bautzner/Rothenburger Straße",
        "city": "Dresden",
        "tariffZone1": "0100",
        "tariffZone2": "",
        "tariffZone3": ""
      },
      "geometry": {
        "type": "Point",
        "coordinates": [
          13.7519,
          51.062985
        ]
      }
    },
    {
      "type": "Feature",
      "properties": {
        "number": "de:14612:13",
        "nameWithCity": "Dresden Albertplatz",
        "name": "Albertplatz",
        "city": "Dresden",
        "tariffZone1": "0100",
        "tariffZone2": "",
        "tariffZone3": ""
      },
      "geometry": {
        "type": "Point",
        "coordinates": [
          13.746748,
          51.063313
        ]
      }
    },
    {
      "type": "Feature",
      "properties": {
        "number": "de:14612:14",
        "nameWithCity": "Dresden Carolaplatz",
        "name": "Carolaplatz",
        "city": "Dresden",
        "tariffZone1": "0100",
        "tariffZone2": "",
        "tariffZone3": ""
      },
      "geometry": {
        "type": "Point",
        "coordinates": [
          13.74596,
          51.057527
        ]
      }
    },
    {
      "type": "Feature",
      "properties": {
        "number": "de:14612:15",
        "nameWithCity": "Dresden Synagoge",
        "name": "Synagoge",
        "city": "Dresden",
        "tariffZone1": "0100",
        "tariffZone2": "",
        "tariffZone3": ""
      },
      "geometry": {
        "type": "Point",
        "coordinates": [
          13.747111,
          51.052475
        ]
      }
    },
    {
      "type": "Feature",
      "properties": {
        "number": "de:14612:16",
        "nameWithCity": "Dresden Bahnhof Neustadt",
        "name": "Bahnhof Neustadt",
        "city": "Dresden",
        "tariffZone1": "0100",
        "tariffZone2": "",
        "tariffZone3": ""
      },
      "geometry": {
        "type": "Point",
        "coordinates": [
          13.740879,
          51.065433
        ]
      }
    },
    {
      "type": "Feature",
      "properties": {
        "number": "de:14612:17",
        "nameWithCity": "Dresden Anton-/Leipziger Str.",
        "name": "Anton-/Leipziger Straße",
        "city": "Dresden",
        "tariffZone1": "0100",
        "tariffZone2": "",
        "tariffZone3": ""
      },
      "geometry": {
        "type": "Point",
        "coordinates": [
          13.736996,
          51.06309
        ]
      }
    },
    {
      "type": "Feature",
      "properties": {
        "number": "de:14612:18",
        "nameWithCity": "Dresden Palaisplatz",
        "name": "Palaisplatz",
        "city": "Dresden",
        "tariffZone1": "0100",
        "tariffZone2": "",
        "tariffZone3": ""
      },
      "geometry": {
        "type": "Point",
        "coordinates": [
          13.7384,
          51.060202
        ]
      }
    },
    {
      "type": "Feature",
      "properties": {
        "number": "de:14612:19",
        "nameWithCity": "Dresden Neustädter Markt",
        "name": "Neustädter Markt",
        "city": "Dresden",
        "tariffZone1": "0100",
        "tariffZone2": "",
        "tariffZone3": ""
      },
      "geometry": {
        "type": "Point",
        "coordinates": [
          13.741278,
          51.057822
        ]
      }
    },
    {
      "type": "Feature",
      "properties": {
        "number": "de:14612:20",
        "nameWithCity": "Dresden Theaterplatz",
        "name": "Theaterplatz",
        "city": "Dresden",
        "tariffZone1": "0100",
        "tariffZone2": "",
        "tariffZone3": ""
      },
      "geometry": {
        "type": "Point",
        "coordinates": [
          13.736583,
          51.053576
        ]
      }
    },
    {
      "type": "Feature",
      "properties": {
        "number": "de:14612:21",
        "nameWithCity": "DD Kongresszentrum/H d Presse",
        "name": "Kongresszentrum/Haus d Presse",
        "city": "Dresden",
        "tariffZone1": "0100",
        "tariffZone2": "",
        "tariffZone3": ""
      },
      "geometry": {
        "type": "Point",
        "coordinates": [
          13.727787,
          51.058292
        ]
      }
    },
    {
      "type": "Feature",
      "properties": {
        "number": "de:14612:22",
        "nameWithCity": "Dresden Maxstraße (Bf Mitte)",
        "name": "Maxstraße (Bf Mitte)",
        "city": "Dresden",
        "tariffZone1": "0100",
        "tariffZone2": "",
        "tariffZone3": ""
      },
      "geometry": {
        "type": "Point",
        "coordinates": [
          13.726665,
          51.056888
        ]
      }
    },
    {
      "type": "Feature",
      "properties": {
        "number": "de:14612:23",
        "nameWithCity": "Dresden Schweriner Straße",
        "name": "Schweriner Straße",
        "city": "Dresden",
        "tariffZone1": "0100",
        "tariffZone2": "",
        "tariffZone3": ""
      },
      "geometry": {
        "type": "Point",
        "coordinates": [
          13.726697,
          51.052761
        ]
      }
    },
    {
      "type": "Feature",
      "properties": {
        "number": "de:14612:25",
        "nameWithCity": "Dresden Hp Freiberger Straße",
        "name": "Hp Freiberger Straße",
        "city": "Dresden",
        "tariffZone1": "0100",
        "tariffZone2": "",
        "tariffZone3": ""
      },
      "geometry": {
        "type": "Point",
        "coordinates": [
          13.720125,
          51.048615
        ]
      }
    },
    {
      "type": "Feature",
      "properties": {
        "number": "de:14612:26",
        "nameWithCity": "Dresden Alfred-Althus-Straße",
        "name": "Alfred-Althus-Straße",
        "city": "Dresden",
        "tariffZone1": "0100",
        "tariffZone2": "",
        "tariffZone3": ""
      },
      "geometry": {
        "type": "Point",
        "coordinates": [
          13.725767,
          51.050392
        ]
      }
    },
    {
      "type": "Feature",
      "properties": {
        "number": "de:14612:27",
        "nameWithCity": "Dresden Budapester Straße",
        "name": "Budapester Straße",
        "city": "Dresden",
        "tariffZone1": "0100",
        "tariffZone2": "",
        "tariffZone3": ""
      },
      "geometry": {
        "type": "Point",
        "coordinates": [
          13.724893,
          51.043753
        ]
      }
    },
    {
      "type": "Feature",
      "properties": {
        "number": "de:14612:28",
        "nameWithCity": "Dresden Hauptbahnhof",
        "name": "Hauptbahnhof",
        "city": "Dresden",
        "tariffZone1": "0103",
        "tariffZone2": "",
        "tariffZone3": ""
      },
      "geometry": {
        "type": "Point",
        "coordinates": [
          13.732176,
          51.040202
        ]
      }
    },
    {
      "type": "Feature",
      "properties": {
        "number": "de:14612:29",
        "nameWithCity": "Dresden Walpurgisstraße",
        "name": "Walpurgisstraße",
        "city": "Dresden",
        "tariffZone1": "0100",
        "tariffZone2": "",
        "tariffZone3": ""
      },
      "geometry": {
        "type": "Point",
        "coordinates": [
          13.737658,
          51.043807
        ]
      }
    },
    {
      "type": "Feature",
      "properties": {
        "number": "de:14612:30",
        "nameWithCity": "Dresden Gret-Palucca-Straße",
        "name": "Gret-Palucca-Straße",
        "city": "Dresden",
        "tariffZone1": "0100",
        "tariffZone2": "",
        "tariffZone3": ""
      },
      "geometry": {
        "type": "Point",
        "coordinates": [
          13.739724,
          51.038831
        ]
      }
    },
    {
      "type": "Feature",
      "properties": {
        "number": "de:14612:32",
        "nameWithCity": "Dresden Hauptbahnhof Nord",
        "name": "Hauptbahnhof Nord",
        "city": "Dresden",
        "tariffZone1": "0100",
        "tariffZone2": "",
        "tariffZone3": ""
      },
      "geometry": {
        "type": "Point",
        "coordinates": [
          13.735085,
          51.041364
        ]
      }
    },
    {
      "type": "Feature",
      "properties": {
        "number": "de:14612:33",
        "nameWithCity": "Dresden Webergasse",
        "name": "Webergasse",
        "city": "Dresden",
        "tariffZone1": "0100",
        "tariffZone2": "",
        "tariffZone3": ""
      },
      "geometry": {
        "type": "Point",
        "coordinates": [
          13.73438,
          51.048053
        ]
      }
    },
    {
      "type": "Feature",
      "properties": {
        "number": "de:14612:34",
        "nameWithCity": "Dresden Ammon-/Budapester Str.",
        "name": "Ammon-/Budapester Str.",
        "city": "Dresden",
        "tariffZone1": "0100",
        "tariffZone2": "",
        "tariffZone3": ""
      },
      "geometry": {
        "type": "Point",
        "coordinates": [
          13.725993,
          51.043827
        ]
      }
    },
    {
      "type": "Feature",
      "properties": {
        "number": "de:14612:35",
        "nameWithCity": "Dresden Am Zwingerteich",
        "name": "Am Zwingerteich",
        "city": "Dresden",
        "tariffZone1": "0100",
        "tariffZone2": "",
        "tariffZone3": ""
      },
      "geometry": {
        "type": "Point",
        "coordinates": [
          13.730369,
          51.054469
        ]
      }
    },
    {
      "type": "Feature",
      "properties": {
        "number": "de:14612:36",
        "nameWithCity": "Dresden Hbf (Friedr-List-Pl)",
        "name": "Hauptbahnhof (Friedr-List-Pl)",
        "city": "Dresden",
        "tariffZone1": "0103",
        "tariffZone2": "",
        "tariffZone3": ""
      },
      "geometry": {
        "type": "Point",
        "coordinates": [
          13.733806,
          51.038803
        ]
      }
    },
    {
      "type": "Feature",
      "properties": {
        "number": "de:14612:37",
        "nameWithCity": "Dresden Postplatz",
        "name": "Postplatz",
        "city": "Dresden",
        "tariffZone1": "0100",
        "tariffZone2": "",
        "tariffZone3": ""
      },
      "geometry": {
        "type": "Point",
        "coordinates": [
          13.733586,
          51.050852
        ]
      }
    },
    {
      "type": "Feature",
      "properties": {
        "number": "de:14612:40",
        "nameWithCity": "Dresden Güntzplatz",
        "name": "Güntzplatz",
        "city": "Dresden",
        "tariffZone1": "0100",
        "tariffZone2": "",
        "tariffZone3": ""
      },
      "geometry": {
        "type": "Point",
        "coordinates": [
          13.759378,
          51.05364
        ]
      }
    },
    {
      "type": "Feature",
      "properties": {
        "number": "de:14612:41",
        "nameWithCity": "Dresden Permoserstraße",
        "name": "Permoserstraße",
        "city": "Dresden",
        "tariffZone1": "0100",
        "tariffZone2": "",
        "tariffZone3": ""
      },
      "geometry": {
        "type": "Point",
        "coordinates": [
          13.763026,
          51.053162
        ]
      }
    },
    {
      "type": "Feature",
      "properties": {
        "number": "de:14612:42",
        "nameWithCity": "Dresden Trinitatisplatz",
        "name": "Trinitatisplatz",
        "city": "Dresden",
        "tariffZone1": "0100",
        "tariffZone2": "",
        "tariffZone3": ""
      },
      "geometry": {
        "type": "Point",
        "coordinates": [
          13.76983,
          51.052448
        ]
      }
    },
    {
      "type": "Feature",
      "properties": {
        "number": "de:14612:43",
        "nameWithCity": "DD Blasewitzer/Fetscherstraße",
        "name": "Blasewitzer/Fetscherstraße",
        "city": "Dresden",
        "tariffZone1": "0100",
        "tariffZone2": "",
        "tariffZone3": ""
      },
      "geometry": {
        "type": "Point",
        "coordinates": [
          13.777706,
          51.052886
        ]
      }
    },
    {
      "type": "Feature",
      "properties": {
        "number": "de:14612:44",
        "nameWithCity": "Dresden Gabelsbergerstraße",
        "name": "Gabelsbergerstraße",
        "city": "Dresden",
        "tariffZone1": "0100",
        "tariffZone2": "",
        "tariffZone3": ""
      },
      "geometry": {
        "type": "Point",
        "coordinates": [
          13.7745,
          51.049608
        ]
      }
    },
    {
      "type": "Feature",
      "properties": {
        "number": "de:14612:45",
        "nameWithCity": "Dresden Universitätsklinikum",
        "name": "Universitätsklinikum",
        "city": "Dresden",
        "tariffZone1": "0100",
        "tariffZone2": "",
        "tariffZone3": ""
      },
      "geometry": {
        "type": "Point",
        "coordinates": [
          13.780955,
          51.056522
        ]
      }
    },
    {
      "type": "Feature",
      "properties": {
        "number": "de:14612:46",
        "nameWithCity": "Dresden Pfotenhauerstraße",
        "name": "Pfotenhauerstraße",
        "city": "Dresden",
        "tariffZone1": "0100",
        "tariffZone2": "",
        "tariffZone3": ""
      },
      "geometry": {
        "type": "Point",
        "coordinates": [
          13.777531,
          51.058732
        ]
      }
    },
    {
      "type": "Feature",
      "properties": {
        "number": "de:14612:47",
        "nameWithCity": "Dresden Johannstadt",
        "name": "Johannstadt",
        "city": "Dresden",
        "tariffZone1": "0100",
        "tariffZone2": "",
        "tariffZone3": ""
      },
      "geometry": {
        "type": "Point",
        "coordinates": [
          13.782399,
          51.059197
        ]
      }
    },
    {
      "type": "Feature",
      "properties": {
        "number": "de:14612:48",
        "nameWithCity": "Dresden Augsburger Straße",
        "name": "Augsburger Straße",
        "city": "Dresden",
        "tariffZone1": "0100",
        "tariffZone2": "",
        "tariffZone3": ""
      },
      "geometry": {
        "type": "Point",
        "coordinates": [
          13.781672,
          51.053284
        ]
      }
    },
    {
      "type": "Feature",
      "properties": {
        "number": "de:14612:49",
        "nameWithCity": "Dresden Königsheimplatz",
        "name": "Königsheimplatz",
        "city": "Dresden",
        "tariffZone1": "0100",
        "tariffZone2": "",
        "tariffZone3": ""
      },
      "geometry": {
        "type": "Point",
        "coordinates": [
          13.786942,
          51.053824
        ]
      }
    },
    {
      "type": "Feature",
      "properties": {
        "number": "de:14612:50",
        "nameWithCity": "Dresden Lene-Glatzer-Straße",
        "name": "Lene-Glatzer-Straße",
        "city": "Dresden",
        "tariffZone1": "0100",
        "tariffZone2": "",
        "tariffZone3": ""
      },
      "geometry": {
        "type": "Point",
        "coordinates": [
          13.792247,
          51.053796
        ]
      }
    },
    {
      "type": "Feature",
      "properties": {
        "number": "de:14612:51",
        "nameWithCity": "Dresden Prellerstraße",
        "name": "Prellerstraße",
        "city": "Dresden",
        "tariffZone1": "0100",
        "tariffZone2": "",
        "tariffZone3": ""
      },
      "geometry": {
        "type": "Point",
        "coordinates": [
          13.798707,
          51.053014
        ]
      }
    },
    {
      "type": "Feature",
      "properties": {
        "number": "de:14612:52",
        "nameWithCity": "Dresden Schillerplatz",
        "name": "Schillerplatz",
        "city": "Dresden",
        "tariffZone1": "0109",
        "tariffZone2": "",
        "tariffZone3": ""
      },
      "geometry": {
        "type": "Point",
        "coordinates": [
          13.805107,
          51.052187
        ]
      }
    },
    {
      "type": "Feature",
      "properties": {
        "number": "de:14612:53",
        "nameWithCity": "Dresden Kretschmerstraße",
        "name": "Kretschmerstraße",
        "city": "Dresden",
        "tariffZone1": "0100",
        "tariffZone2": "",
        "tariffZone3": ""
      },
      "geometry": {
        "type": "Point",
        "coordinates": [
          13.8081,
          51.051035
        ]
      }
    },
    {
      "type": "Feature",
      "properties": {
        "number": "de:14612:54",
        "nameWithCity": "Dresden Heinrich-Schütz-Straße",
        "name": "Heinrich-Schütz-Straße",
        "city": "Dresden",
        "tariffZone1": "0100",
        "tariffZone2": "",
        "tariffZone3": ""
      },
      "geometry": {
        "type": "Point",
        "coordinates": [
          13.81284,
          51.046035
        ]
      }
    },
    {
      "type": "Feature",
      "properties": {
        "number": "de:14612:55",
        "nameWithCity": "Dresden Gustav-Freytag-Straße",
        "name": "Gustav-Freytag-Straße",
        "city": "Dresden",
        "tariffZone1": "0100",
        "tariffZone2": "",
        "tariffZone3": ""
      },
      "geometry": {
        "type": "Point",
        "coordinates": [
          13.812931,
          51.041808
        ]
      }
    },
    {
      "type": "Feature",
      "properties": {
        "number": "de:14612:56",
        "nameWithCity": "Dresden Jüngststraße",
        "name": "Jüngststraße",
        "city": "Dresden",
        "tariffZone1": "0100",
        "tariffZone2": "",
        "tariffZone3": ""
      },
      "geometry": {
        "type": "Point",
        "coordinates": [
          13.809784,
          51.049238
        ]
      }
    },
    {
      "type": "Feature",
      "properties": {
        "number": "de:14612:61",
        "nameWithCity": "Dresden Krhs. St. Joseph-Stift",
        "name": "Krhs. St. Joseph-Stift",
        "city": "Dresden",
        "tariffZone1": "0100",
        "tariffZone2": "",
        "tariffZone3": ""
      },
      "geometry": {
        "type": "Point",
        "coordinates": [
          13.762982,
          51.046762
        ]
      }
    },
    {
      "type": "Feature",
      "properties": {
        "number": "de:14612:62",
        "nameWithCity": "Dresden Fetscherplatz",
        "name": "Fetscherplatz",
        "city": "Dresden",
        "tariffZone1": "0100",
        "tariffZone2": "",
        "tariffZone3": ""
      },
      "geometry": {
        "type": "Point",
        "coordinates": [
          13.770853,
          51.046346
        ]
      }
    },
    {
      "type": "Feature",
      "properties": {
        "number": "de:14612:63",
        "nameWithCity": "Dresden Mosenstraße",
        "name": "Mosenstraße",
        "city": "Dresden",
        "tariffZone1": "0100",
        "tariffZone2": "",
        "tariffZone3": ""
      },
      "geometry": {
        "type": "Point",
        "coordinates": [
          13.777783,
          51.04483
        ]
      }
    },
    {
      "type": "Feature",
      "properties": {
        "number": "de:14612:64",
        "nameWithCity": "Dresden Bergmannstraße",
        "name": "Bergmannstraße",
        "city": "Dresden",
        "tariffZone1": "0100",
        "tariffZone2": "",
        "tariffZone3": ""
      },
      "geometry": {
        "type": "Point",
        "coordinates": [
          13.788348,
          51.043302
        ]
      }
    },
    {
      "type": "Feature",
      "properties": {
        "number": "de:14612:65",
        "nameWithCity": "Dresden Pohlandplatz",
        "name": "Pohlandplatz",
        "city": "Dresden",
        "tariffZone1": "0100",
        "tariffZone2": "",
        "tariffZone3": ""
      },
      "geometry": {
        "type": "Point",
        "coordinates": [
          13.795333,
          51.042871
        ]
      }
    },
    {
      "type": "Feature",
      "properties": {
        "number": "de:14612:66",
        "nameWithCity": "Dresden Gottleubaer Straße",
        "name": "Gottleubaer Straße",
        "city": "Dresden",
        "tariffZone1": "0100",
        "tariffZone2": "",
        "tariffZone3": ""
      },
      "geometry": {
        "type": "Point",
        "coordinates": [
          13.800943,
          51.041176
        ]
      }
    },
    {
      "type": "Feature",
      "properties": {
        "number": "de:14612:67",
        "nameWithCity": "Dresden Altenberger Straße",
        "name": "Altenberger Straße",
        "city": "Dresden",
        "tariffZone1": "0100",
        "tariffZone2": "",
        "tariffZone3": ""
      },
      "geometry": {
        "type": "Point",
        "coordinates": [
          13.805868,
          51.039491
        ]
      }
    },
    {
      "type": "Feature",
      "properties": {
        "number": "de:14612:68",
        "nameWithCity": "Dresden Ludwig-Hartmann-Straße",
        "name": "Ludwig-Hartmann-Straße",
        "city": "Dresden",
        "tariffZone1": "0100",
        "tariffZone2": "",
        "tariffZone3": ""
      },
      "geometry": {
        "type": "Point",
        "coordinates": [
          13.808692,
          51.038035
        ]
      }
    },
    {
      "type": "Feature",
      "properties": {
        "number": "de:14612:69",
        "nameWithCity": "Dresden Johannisfriedhof",
        "name": "Johannisfriedhof",
        "city": "Dresden",
        "tariffZone1": "0100",
        "tariffZone2": "",
        "tariffZone3": ""
      },
      "geometry": {
        "type": "Point",
        "coordinates": [
          13.812679,
          51.036796
        ]
      }
    },
    {
      "type": "Feature",
      "properties": {
        "number": "de:14612:70",
        "nameWithCity": "Dresden Tolkewitz Urnenhain",
        "name": "Tolkewitz Urnenhain",
        "city": "Dresden",
        "tariffZone1": "0100",
        "tariffZone2": "",
        "tariffZone3": ""
      },
      "geometry": {
        "type": "Point",
        "coordinates": [
          13.817362,
          51.03551
        ]
      }
    },
    {
      "type": "Feature",
      "properties": {
        "number": "de:14612:71",
        "nameWithCity": "Dresden Wasserwerk Tolkewitz",
        "name": "Wasserwerk Tolkewitz",
        "city": "Dresden",
        "tariffZone1": "0100",
        "tariffZone2": "",
        "tariffZone3": ""
      },
      "geometry": {
        "type": "Point",
        "coordinates": [
          13.823134,
          51.033999
        ]
      }
    },
    {
      "type": "Feature",
      "properties": {
        "number": "de:14612:72",
        "nameWithCity": "Dresden Alttolkewitz",
        "name": "Alttolkewitz",
        "city": "Dresden",
        "tariffZone1": "0100",
        "tariffZone2": "",
        "tariffZone3": ""
      },
      "geometry": {
        "type": "Point",
        "coordinates": [
          13.832375,
          51.029719
        ]
      }
    },
    {
      "type": "Feature",
      "properties": {
        "number": "de:14612:73",
        "nameWithCity": "Dresden Hermann-Seidel-Straße",
        "name": "Hermann-Seidel-Straße",
        "city": "Dresden",
        "tariffZone1": "0100",
        "tariffZone2": "",
        "tariffZone3": ""
      },
      "geometry": {
        "type": "Point",
        "coordinates": [
          13.834652,
          51.027823
        ]
      }
    },
    {
      "type": "Feature",
      "properties": {
        "number": "de:14612:74",
        "nameWithCity": "Dresden Leubener Straße",
        "name": "Leubener Straße",
        "city": "Dresden",
        "tariffZone1": "0100",
        "tariffZone2": "",
        "tariffZone3": ""
      },
      "geometry": {
        "type": "Point",
        "coordinates": [
          13.837413,
          51.024813
        ]
      }
    },
    {
      "type": "Feature",
      "properties": {
        "number": "de:14612:75",
        "nameWithCity": "Dresden Kronstädter Platz",
        "name": "Kronstädter Platz",
        "city": "Dresden",
        "tariffZone1": "0100",
        "tariffZone2": "",
        "tariffZone3": ""
      },
      "geometry": {
        "type": "Point",
        "coordinates": [
          13.838648,
          51.022869
        ]
      }
    },
    {
      "type": "Feature",
      "properties": {
        "number": "de:14612:76",
        "nameWithCity": "Dresden Laibacher Straße",
        "name": "Laibacher Straße",
        "city": "Dresden",
        "tariffZone1": "0100",
        "tariffZone2": "",
        "tariffZone3": ""
      },
      "geometry": {
        "type": "Point",
        "coordinates": [
          13.83354,
          51.021673
        ]
      }
    },
    {
      "type": "Feature",
      "properties": {
        "number": "de:14612:77",
        "nameWithCity": "Dresden Großglocknerstraße",
        "name": "Großglocknerstraße",
        "city": "Dresden",
        "tariffZone1": "0100",
        "tariffZone2": "",
        "tariffZone3": ""
      },
      "geometry": {
        "type": "Point",
        "coordinates": [
          13.830151,
          51.01742
        ]
      }
    },
    {
      "type": "Feature",
      "properties": {
        "number": "de:14612:78",
        "nameWithCity": "Dresden Friedhof Leuben",
        "name": "Friedhof Leuben",
        "city": "Dresden",
        "tariffZone1": "0100",
        "tariffZone2": "",
        "tariffZone3": ""
      },
      "geometry": {
        "type": "Point",
        "coordinates": [
          13.824159,
          51.013271
        ]
      }
    },
    {
      "type": "Feature",
      "properties": {
        "number": "de:14612:80",
        "nameWithCity": "Dresden St.-Benno-Gymnasium",
        "name": "St.-Benno-Gymnasium",
        "city": "Dresden",
        "tariffZone1": "0100",
        "tariffZone2": "",
        "tariffZone3": ""
      },
      "geometry": {
        "type": "Point",
        "coordinates": [
          13.757177,
          51.049753
        ]
      }
    },
    {
      "type": "Feature",
      "properties": {
        "number": "de:14612:81",
        "nameWithCity": "Dresden Comeniusplatz",
        "name": "Comeniusplatz",
        "city": "Dresden",
        "tariffZone1": "0100",
        "tariffZone2": "",
        "tariffZone3": ""
      },
      "geometry": {
        "type": "Point",
        "coordinates": [
          13.766468,
          51.041666
        ]
      }
    },
    {
      "type": "Feature",
      "properties": {
        "number": "de:14612:82",
        "nameWithCity": "Dresden Lipsiusstraße",
        "name": "Lipsiusstraße",
        "city": "Dresden",
        "tariffZone1": "0100",
        "tariffZone2": "",
        "tariffZone3": ""
      },
      "geometry": {
        "type": "Point",
        "coordinates": [
          13.771414,
          51.03974
        ]
      }
    },
    {
      "type": "Feature",
      "properties": {
        "number": "de:14612:83",
        "nameWithCity": "Dresden Karcherallee",
        "name": "Karcherallee",
        "city": "Dresden",
        "tariffZone1": "0100",
        "tariffZone2": "",
        "tariffZone3": ""
      },
      "geometry": {
        "type": "Point",
        "coordinates": [
          13.778098,
          51.037058
        ]
      }
    },
    {
      "type": "Feature",
      "properties": {
        "number": "de:14612:84",
        "nameWithCity": "Dresden Zwinglistraße",
        "name": "Zwinglistraße",
        "city": "Dresden",
        "tariffZone1": "0100",
        "tariffZone2": "",
        "tariffZone3": ""
      },
      "geometry": {
        "type": "Point",
        "coordinates": [
          13.783458,
          51.034063
        ]
      }
    },
    {
      "type": "Feature",
      "properties": {
        "number": "de:14612:85",
        "nameWithCity": "Dresden Liebstädter Straße",
        "name": "Liebstädter Straße",
        "city": "Dresden",
        "tariffZone1": "0100",
        "tariffZone2": "",
        "tariffZone3": ""
      },
      "geometry": {
        "type": "Point",
        "coordinates": [
          13.789285,
          51.030235
        ]
      }
    },
    {
      "type": "Feature",
      "properties": {
        "number": "de:14612:86",
        "nameWithCity": "Dresden Rauensteinstraße",
        "name": "Rauensteinstraße",
        "city": "Dresden",
        "tariffZone1": "0100",
        "tariffZone2": "",
        "tariffZone3": ""
      },
      "geometry": {
        "type": "Point",
        "coordinates": [
          13.795201,
          51.028391
        ]
      }
    },
    {
      "type": "Feature",
      "properties": {
        "number": "de:14612:87",
        "nameWithCity": "Dresden Rennplatzstraße",
        "name": "Rennplatzstraße",
        "city": "Dresden",
        "tariffZone1": "0100",
        "tariffZone2": "",
        "tariffZone3": ""
      },
      "geometry": {
        "type": "Point",
        "coordinates": [
          13.80042,
          51.027331
        ]
      }
    },
    {
      "type": "Feature",
      "properties": {
        "number": "de:14612:88",
        "nameWithCity": "Dresden Marienberger Straße",
        "name": "Marienberger Straße",
        "city": "Dresden",
        "tariffZone1": "0100",
        "tariffZone2": "",
        "tariffZone3": ""
      },
      "geometry": {
        "type": "Point",
        "coordinates": [
          13.805368,
          51.025519
        ]
      }
    },
    {
      "type": "Feature",
      "properties": {
        "number": "de:14612:89",
        "nameWithCity": "Dresden Prof.-Ricker-Straße",
        "name": "Prof.-Ricker-Straße",
        "city": "Dresden",
        "tariffZone1": "0100",
        "tariffZone2": "",
        "tariffZone3": ""
      },
      "geometry": {
        "type": "Point",
        "coordinates": [
          13.808919,
          51.023379
        ]
      }
    },
    {
      "type": "Feature",
      "properties": {
        "number": "de:14612:90",
        "nameWithCity": "Dresden Lassallestraße",
        "name": "Lassallestraße",
        "city": "Dresden",
        "tariffZone1": "0100",
        "tariffZone2": "",
        "tariffZone3": ""
      },
      "geometry": {
        "type": "Point",
        "coordinates": [
          13.811901,
          51.020168
        ]
      }
    },
    {
      "type": "Feature",
      "properties": {
        "number": "de:14612:91",
        "nameWithCity": "Dresden Abzweig nach Reick",
        "name": "Abzweig nach Reick",
        "city": "Dresden",
        "tariffZone1": "0100",
        "tariffZone2": "",
        "tariffZone3": ""
      },
      "geometry": {
        "type": "Point",
        "coordinates": [
          13.81618,
          51.016236
        ]
      }
    },
    {
      "type": "Feature",
      "properties": {
        "number": "de:14612:92",
        "nameWithCity": "Dresden Rottwerndorfer Straße",
        "name": "Rottwerndorfer Straße",
        "city": "Dresden",
        "tariffZone1": "0100",
        "tariffZone2": "",
        "tariffZone3": ""
      },
      "geometry": {
        "type": "Point",
        "coordinates": [
          13.821163,
          51.013551
        ]
      }
    },
    {
      "type": "Feature",
      "properties": {
        "number": "de:14612:93",
        "nameWithCity": "Dresden Altleuben",
        "name": "Altleuben",
        "city": "Dresden",
        "tariffZone1": "0100",
        "tariffZone2": "",
        "tariffZone3": ""
      },
      "geometry": {
        "type": "Point",
        "coordinates": [
          13.825963,
          51.01202
        ]
      }
    },
    {
      "type": "Feature",
      "properties": {
        "number": "de:14612:94",
        "nameWithCity": "Dresden Berthold-Haupt-Straße",
        "name": "Berthold-Haupt-Straße",
        "city": "Dresden",
        "tariffZone1": "0101",
        "tariffZone2": "",
        "tariffZone3": ""
      },
      "geometry": {
        "type": "Point",
        "coordinates": [
          13.830912,
          51.009974
        ]
      }
    },
    {
      "type": "Feature",
      "properties": {
        "number": "de:14612:95",
        "nameWithCity": "Dresden Leuben Klettestraße",
        "name": "Leuben Klettestraße",
        "city": "Dresden",
        "tariffZone1": "0100",
        "tariffZone2": "",
        "tariffZone3": ""
      },
      "geometry": {
        "type": "Point",
        "coordinates": [
          13.827987,
          51.007322
        ]
      }
    },
    {
      "type": "Feature",
      "properties": {
        "number": "de:14612:96",
        "nameWithCity": "Dresden Guerickestraße",
        "name": "Guerickestraße",
        "city": "Dresden",
        "tariffZone1": "0100",
        "tariffZone2": "",
        "tariffZone3": ""
      },
      "geometry": {
        "type": "Point",
        "coordinates": [
          13.826955,
          51.005352
        ]
      }
    },
    {
      "type": "Feature",
      "properties": {
        "number": "de:14612:97",
        "nameWithCity": "Dresden Straße des 17. Juni",
        "name": "Straße des 17. Juni",
        "city": "Dresden",
        "tariffZone1": "0100",
        "tariffZone2": "",
        "tariffZone3": ""
      },
      "geometry": {
        "type": "Point",
        "coordinates": [
          13.825963,
          51.002967
        ]
      }
    },
    {
      "type": "Feature",
      "properties": {
        "number": "de:14612:98",
        "nameWithCity": "Dresden Bf Niedersedlitz",
        "name": "Bf Niedersedlitz",
        "city": "Dresden",
        "tariffZone1": "0101",
        "tariffZone2": "",
        "tariffZone3": ""
      },
      "geometry": {
        "type": "Point",
        "coordinates": [
          13.828714,
          50.999364
        ]
      }
    },
    {
      "type": "Feature",
      "properties": {
        "number": "de:14612:99",
        "nameWithCity": "Dresden Heckenweg",
        "name": "Heckenweg",
        "city": "Dresden",
        "tariffZone1": "0100",
        "tariffZone2": "",
        "tariffZone3": ""
      },
      "geometry": {
        "type": "Point",
        "coordinates": [
          13.840551,
          51.008671
        ]
      }
    },
    {
      "type": "Feature",
      "properties": {
        "number": "de:14612:100",
        "nameWithCity": "Dresden Meußlitzer Straße",
        "name": "Meußlitzer Straße",
        "city": "Dresden",
        "tariffZone1": "0101",
        "tariffZone2": "",
        "tariffZone3": ""
      },
      "geometry": {
        "type": "Point",
        "coordinates": [
          13.848933,
          51.008036
        ]
      }
    },
    {
      "type": "Feature",
      "properties": {
        "number": "de:14612:101",
        "nameWithCity": "Dresden Freystraße",
        "name": "Freystraße",
        "city": "Dresden",
        "tariffZone1": "0100",
        "tariffZone2": "",
        "tariffZone3": ""
      },
      "geometry": {
        "type": "Point",
        "coordinates": [
          13.854782,
          51.008203
        ]
      }
    },
    {
      "type": "Feature",
      "properties": {
        "number": "de:14612:103",
        "nameWithCity": "Dresden Försterlingstraße",
        "name": "Försterlingstraße",
        "city": "Dresden",
        "tariffZone1": "0101",
        "tariffZone2": "",
        "tariffZone3": ""
      },
      "geometry": {
        "type": "Point",
        "coordinates": [
          13.829705,
          51.00067
        ]
      }
    },
    {
      "type": "Feature",
      "properties": {
        "number": "de:14612:111",
        "nameWithCity": "Dresden Lennéplatz",
        "name": "Lennéplatz",
        "city": "Dresden",
        "tariffZone1": "0100",
        "tariffZone2": "",
        "tariffZone3": ""
      },
      "geometry": {
        "type": "Point",
        "coordinates": [
          13.746609,
          51.038378
        ]
      }
    },
    {
      "type": "Feature",
      "properties": {
        "number": "de:14612:112",
        "nameWithCity": "Dresden Zoo",
        "name": "Zoo",
        "city": "Dresden",
        "tariffZone1": "0100",
        "tariffZone2": "",
        "tariffZone3": ""
      },
      "geometry": {
        "type": "Point",
        "coordinates": [
          13.752172,
          51.036937
        ]
      }
    },
    {
      "type": "Feature",
      "properties": {
        "number": "de:14612:113",
        "nameWithCity": "Dresden Querallee",
        "name": "Querallee",
        "city": "Dresden",
        "tariffZone1": "0100",
        "tariffZone2": "",
        "tariffZone3": ""
      },
      "geometry": {
        "type": "Point",
        "coordinates": [
          13.758325,
          51.034507
        ]
      }
    },
    {
      "type": "Feature",
      "properties": {
        "number": "de:14612:114",
        "nameWithCity": "Dresden Julius-Otto-Straße",
        "name": "Julius-Otto-Straße",
        "city": "Dresden",
        "tariffZone1": "0100",
        "tariffZone2": "",
        "tariffZone3": ""
      },
      "geometry": {
        "type": "Point",
        "coordinates": [
          13.757652,
          51.032549
        ]
      }
    },
    {
      "type": "Feature",
      "properties": {
        "number": "de:14612:115",
        "nameWithCity": "Dresden Wasaplatz",
        "name": "Wasaplatz",
        "city": "Dresden",
        "tariffZone1": "0100",
        "tariffZone2": "",
        "tariffZone3": ""
      },
      "geometry": {
        "type": "Point",
        "coordinates": [
          13.759181,
          51.028121
        ]
      }
    },
    {
      "type": "Feature",
      "properties": {
        "number": "de:14612:116",
        "nameWithCity": "Dresden Mockritzer Straße",
        "name": "Mockritzer Straße",
        "city": "Dresden",
        "tariffZone1": "0100",
        "tariffZone2": "",
        "tariffZone3": ""
      },
      "geometry": {
        "type": "Point",
        "coordinates": [
          13.762281,
          51.024532
        ]
      }
    },
    {
      "type": "Feature",
      "properties": {
        "number": "de:14612:117",
        "nameWithCity": "Dresden Hugo-Bürkner-Straße",
        "name": "Hugo-Bürkner-Straße",
        "city": "Dresden",
        "tariffZone1": "0100",
        "tariffZone2": "",
        "tariffZone3": ""
      },
      "geometry": {
        "type": "Point",
        "coordinates": [
          13.765437,
          51.022426
        ]
      }
    },
    {
      "type": "Feature",
      "properties": {
        "number": "de:14612:118",
        "nameWithCity": "Dresden Cäcilienstraße",
        "name": "Cäcilienstraße",
        "city": "Dresden",
        "tariffZone1": "0100",
        "tariffZone2": "",
        "tariffZone3": ""
      },
      "geometry": {
        "type": "Point",
        "coordinates": [
          13.769938,
          51.024965
        ]
      }
    },
    {
      "type": "Feature",
      "properties": {
        "number": "de:14612:119",
        "nameWithCity": "Dresden Eugen-Bracht-Straße",
        "name": "Eugen-Bracht-Straße",
        "city": "Dresden",
        "tariffZone1": "0100",
        "tariffZone2": "",
        "tariffZone3": ""
      },
      "geometry": {
        "type": "Point",
        "coordinates": [
          13.774313,
          51.022705
        ]
      }
    },
    {
      "type": "Feature",
      "properties": {
        "number": "de:14612:120",
        "nameWithCity": "Dresden Otto-Dix-Ring",
        "name": "Otto-Dix-Ring",
        "city": "Dresden",
        "tariffZone1": "0100",
        "tariffZone2": "",
        "tariffZone3": ""
      },
      "geometry": {
        "type": "Point",
        "coordinates": [
          13.780546,
          51.019464
        ]
      }
    },
    {
      "type": "Feature",
      "properties": {
        "number": "de:14612:121",
        "nameWithCity": "Dresden Wieckestraße",
        "name": "Wieckestraße",
        "city": "Dresden",
        "tariffZone1": "0100",
        "tariffZone2": "",
        "tariffZone3": ""
      },
      "geometry": {
        "type": "Point",
        "coordinates": [
          13.783825,
          51.017625
        ]
      }
    },
    {
      "type": "Feature",
      "properties": {
        "number": "de:14612:122",
        "nameWithCity": "Dresden Lohrmannstraße",
        "name": "Lohrmannstraße",
        "city": "Dresden",
        "tariffZone1": "0100",
        "tariffZone2": "",
        "tariffZone3": ""
      },
      "geometry": {
        "type": "Point",
        "coordinates": [
          13.786934,
          51.015833
        ]
      }
    },
    {
      "type": "Feature",
      "properties": {
        "number": "de:14612:123",
        "nameWithCity": "Dresden Hülßestraße",
        "name": "Hülßestraße",
        "city": "Dresden",
        "tariffZone1": "0100",
        "tariffZone2": "",
        "tariffZone3": ""
      },
      "geometry": {
        "type": "Point",
        "coordinates": [
          13.790807,
          51.013526
        ]
      }
    },
    {
      "type": "Feature",
      "properties": {
        "number": "de:14612:124",
        "nameWithCity": "Dresden Altreick",
        "name": "Altreick",
        "city": "Dresden",
        "tariffZone1": "0100",
        "tariffZone2": "",
        "tariffZone3": ""
      },
      "geometry": {
        "type": "Point",
        "coordinates": [
          13.795121,
          51.013037
        ]
      }
    },
    {
      "type": "Feature",
      "properties": {
        "number": "de:14612:125",
        "nameWithCity": "Dresden Mügelner Straße",
        "name": "Mügelner Straße",
        "city": "Dresden",
        "tariffZone1": "0100",
        "tariffZone2": "",
        "tariffZone3": ""
      },
      "geometry": {
        "type": "Point",
        "coordinates": [
          13.806409,
          51.010886
        ]
      }
    },
    {
      "type": "Feature",
      "properties": {
        "number": "de:14612:126",
        "nameWithCity": "Dresden Breitscheidstraße",
        "name": "Breitscheidstraße",
        "city": "Dresden",
        "tariffZone1": "0100",
        "tariffZone2": "",
        "tariffZone3": ""
      },
      "geometry": {
        "type": "Point",
        "coordinates": [
          13.811494,
          51.013747
        ]
      }
    },
    {
      "type": "Feature",
      "properties": {
        "number": "de:14612:127",
        "nameWithCity": "Dresden Trattendorfer Straße",
        "name": "Trattendorfer Straße",
        "city": "Dresden",
        "tariffZone1": "0100",
        "tariffZone2": "",
        "tariffZone3": ""
      },
      "geometry": {
        "type": "Point",
        "coordinates": [
          13.800808,
          51.010127
        ]
      }
    },
    {
      "type": "Feature",
      "properties": {
        "number": "de:14612:128",
        "nameWithCity": "Dresden Betriebshof Reick",
        "name": ";hof Reick",
        "city": "Dresden",
        "tariffZone1": "0100",
        "tariffZone2": "",
        "tariffZone3": ""
      },
      "geometry": {
        "type": "Point",
        "coordinates": [
          13.804663,
          51.010688
        ]
      }
    },
    {
      "type": "Feature",
      "properties": {
        "number": "de:14612:131",
        "nameWithCity": "Dresden Reichenbachstraße",
        "name": "Reichenbachstraße",
        "city": "Dresden",
        "tariffZone1": "0103",
        "tariffZone2": "",
        "tariffZone3": ""
      },
      "geometry": {
        "type": "Point",
        "coordinates": [
          13.731387,
          51.035126
        ]
      }
    },
    {
      "type": "Feature",
      "properties": {
        "number": "de:14612:132",
        "nameWithCity": "Dresden Nürnberger Platz",
        "name": "Nürnberger Platz",
        "city": "Dresden",
        "tariffZone1": "0100",
        "tariffZone2": "",
        "tariffZone3": ""
      },
      "geometry": {
        "type": "Point",
        "coordinates": [
          13.726943,
          51.031775
        ]
      }
    },
    {
      "type": "Feature",
      "properties": {
        "number": "de:14612:133",
        "nameWithCity": "Dresden Südvorstadt",
        "name": "Südvorstadt",
        "city": "Dresden",
        "tariffZone1": "0100",
        "tariffZone2": "",
        "tariffZone3": ""
      },
      "geometry": {
        "type": "Point",
        "coordinates": [
          13.72208,
          51.034041
        ]
      }
    },
    {
      "type": "Feature",
      "properties": {
        "number": "de:14612:134",
        "nameWithCity": "Dresden Münchner Platz",
        "name": "Münchner Platz",
        "city": "Dresden",
        "tariffZone1": "0100",
        "tariffZone2": "",
        "tariffZone3": ""
      },
      "geometry": {
        "type": "Point",
        "coordinates": [
          13.72157,
          51.029895
        ]
      }
    },
    {
      "type": "Feature",
      "properties": {
        "number": "de:14612:135",
        "nameWithCity": "Dresden Plauen Nöthnitzer Str.",
        "name": "Plauen Nöthnitzer Str.",
        "city": "Dresden",
        "tariffZone1": "0100",
        "tariffZone2": "",
        "tariffZone3": ""
      },
      "geometry": {
        "type": "Point",
        "coordinates": [
          13.715769,
          51.027625
        ]
      }
    },
    {
      "type": "Feature",
      "properties": {
        "number": "de:14612:137",
        "nameWithCity": "Dresden Jahnstraße",
        "name": "Jahnstraße",
        "city": "Dresden",
        "tariffZone1": "0100",
        "tariffZone2": "",
        "tariffZone3": ""
      },
      "geometry": {
        "type": "Point",
        "coordinates": [
          13.723966,
          51.0545
        ]
      }
    },
    {
      "type": "Feature",
      "properties": {
        "number": "de:14612:140",
        "nameWithCity": "Dresden Löbtau Gröbelstraße",
        "name": "Löbtau Gröbelstraße",
        "city": "Dresden",
        "tariffZone1": "0104",
        "tariffZone2": "",
        "tariffZone3": ""
      },
      "geometry": {
        "type": "Point",
        "coordinates": [
          13.702331,
          51.04332
        ]
      }
    },
    {
      "type": "Feature",
      "properties": {
        "number": "de:14612:141",
        "nameWithCity": "Dresden Rosenstraße",
        "name": "Rosenstraße",
        "city": "Dresden",
        "tariffZone1": "0100",
        "tariffZone2": "",
        "tariffZone3": ""
      },
      "geometry": {
        "type": "Point",
        "coordinates": [
          13.713278,
          51.046657
        ]
      }
    },
    {
      "type": "Feature",
      "properties": {
        "number": "de:14612:142",
        "nameWithCity": "Dresden Oederaner Straße",
        "name": "Oederaner Straße",
        "city": "Dresden",
        "tariffZone1": "0100",
        "tariffZone2": "",
        "tariffZone3": ""
      },
      "geometry": {
        "type": "Point",
        "coordinates": [
          13.709619,
          51.044886
        ]
      }
    },
    {
      "type": "Feature",
      "properties": {
        "number": "de:14612:143",
        "nameWithCity": "Dresden Saxoniastraße",
        "name": "Saxoniastraße",
        "city": "Dresden",
        "tariffZone1": "0100",
        "tariffZone2": "",
        "tariffZone3": ""
      },
      "geometry": {
        "type": "Point",
        "coordinates": [
          13.706268,
          51.043739
        ]
      }
    },
    {
      "type": "Feature",
      "properties": {
        "number": "de:14612:144",
        "nameWithCity": "Dresden Tharandter Straße",
        "name": "Tharandter Straße",
        "city": "Dresden",
        "tariffZone1": "0104",
        "tariffZone2": "",
        "tariffZone3": ""
      },
      "geometry": {
        "type": "Point",
        "coordinates": [
          13.703473,
          51.043735
        ]
      }
    },
    {
      "type": "Feature",
      "properties": {
        "number": "de:14612:145",
        "nameWithCity": "Dresden Bünaustraße",
        "name": "Bünaustraße",
        "city": "Dresden",
        "tariffZone1": "0104",
        "tariffZone2": "",
        "tariffZone3": ""
      },
      "geometry": {
        "type": "Point",
        "coordinates": [
          13.698662,
          51.04358
        ]
      }
    },
    {
      "type": "Feature",
      "properties": {
        "number": "de:14612:146",
        "nameWithCity": "Dresden Malterstraße",
        "name": "Malterstraße",
        "city": "Dresden",
        "tariffZone1": "0104",
        "tariffZone2": "",
        "tariffZone3": ""
      },
      "geometry": {
        "type": "Point",
        "coordinates": [
          13.691273,
          51.042752
        ]
      }
    },
    {
      "type": "Feature",
      "properties": {
        "number": "de:14612:147",
        "nameWithCity": "Dresden Koblenzer Straße",
        "name": "Koblenzer Straße",
        "city": "Dresden",
        "tariffZone1": "0104",
        "tariffZone2": "",
        "tariffZone3": ""
      },
      "geometry": {
        "type": "Point",
        "coordinates": [
          13.68342,
          51.042461
        ]
      }
    },
    {
      "type": "Feature",
      "properties": {
        "number": "de:14612:148",
        "nameWithCity": "Dresden Wölfnitz",
        "name": "Wölfnitz",
        "city": "Dresden",
        "tariffZone1": "0100",
        "tariffZone2": "",
        "tariffZone3": ""
      },
      "geometry": {
        "type": "Point",
        "coordinates": [
          13.68166,
          51.043098
        ]
      }
    },
    {
      "type": "Feature",
      "properties": {
        "number": "de:14612:149",
        "nameWithCity": "Dresden Weißeritzstraße",
        "name": "Weißeritzstraße",
        "city": "Dresden",
        "tariffZone1": "0100",
        "tariffZone2": "",
        "tariffZone3": ""
      },
      "geometry": {
        "type": "Point",
        "coordinates": [
          13.722869,
          51.058373
        ]
      }
    },
    {
      "type": "Feature",
      "properties": {
        "number": "de:14612:150",
        "nameWithCity": "Dresden Neuer Annenfriedhof",
        "name": "Neuer Annenfriedhof",
        "city": "Dresden",
        "tariffZone1": "0100",
        "tariffZone2": "",
        "tariffZone3": ""
      },
      "geometry": {
        "type": "Point",
        "coordinates": [
          13.694133,
          51.043349
        ]
      }
    },
    {
      "type": "Feature",
      "properties": {
        "number": "de:14612:153",
        "nameWithCity": "Dresden Cottaer Straße",
        "name": "Cottaer Straße",
        "city": "Dresden",
        "tariffZone1": "0100",
        "tariffZone2": "",
        "tariffZone3": ""
      },
      "geometry": {
        "type": "Point",
        "coordinates": [
          13.713012,
          51.050275
        ]
      }
    },
    {
      "type": "Feature",
      "properties": {
        "number": "de:14612:154",
        "nameWithCity": "Dresden Wernerstraße",
        "name": "Wernerstraße",
        "city": "Dresden",
        "tariffZone1": "0100",
        "tariffZone2": "",
        "tariffZone3": ""
      },
      "geometry": {
        "type": "Point",
        "coordinates": [
          13.707575,
          51.046318
        ]
      }
    },
    {
      "type": "Feature",
      "properties": {
        "number": "de:14612:155",
        "nameWithCity": "Dresden Clara-Viebig-Straße",
        "name": "Clara-Viebig-Straße",
        "city": "Dresden",
        "tariffZone1": "0104",
        "tariffZone2": "",
        "tariffZone3": ""
      },
      "geometry": {
        "type": "Point",
        "coordinates": [
          13.705072,
          51.038354
        ]
      }
    },
    {
      "type": "Feature",
      "properties": {
        "number": "de:14612:156",
        "nameWithCity": "Dresden Würzburger Straße",
        "name": "Würzburger Straße",
        "city": "Dresden",
        "tariffZone1": "0104",
        "tariffZone2": "",
        "tariffZone3": ""
      },
      "geometry": {
        "type": "Point",
        "coordinates": [
          13.703595,
          51.034617
        ]
      }
    },
    {
      "type": "Feature",
      "properties": {
        "number": "de:14612:157",
        "nameWithCity": "Dresden Fritz-Schulze-Straße",
        "name": "Fritz-Schulze-Straße",
        "city": "Dresden",
        "tariffZone1": "0103",
        "tariffZone2": "0104",
        "tariffZone3": ""
      },
      "geometry": {
        "type": "Point",
        "coordinates": [
          13.701882,
          51.031847
        ]
      }
    },
    {
      "type": "Feature",
      "properties": {
        "number": "de:14612:159",
        "nameWithCity": "Dresden Coschützer Straße",
        "name": "Coschützer Straße",
        "city": "Dresden",
        "tariffZone1": "0100",
        "tariffZone2": "",
        "tariffZone3": ""
      },
      "geometry": {
        "type": "Point",
        "coordinates": [
          13.70721,
          51.028254
        ]
      }
    },
    {
      "type": "Feature",
      "properties": {
        "number": "de:14612:160",
        "nameWithCity": "Dresden Westendstraße",
        "name": "Westendstraße",
        "city": "Dresden",
        "tariffZone1": "0100",
        "tariffZone2": "",
        "tariffZone3": ""
      },
      "geometry": {
        "type": "Point",
        "coordinates": [
          13.713619,
          51.0246
        ]
      }
    },
    {
      "type": "Feature",
      "properties": {
        "number": "de:14612:161",
        "nameWithCity": "Dresden Cämmerswalder Straße",
        "name": "Cämmerswalder Straße",
        "city": "Dresden",
        "tariffZone1": "0100",
        "tariffZone2": "",
        "tariffZone3": ""
      },
      "geometry": {
        "type": "Point",
        "coordinates": [
          13.717408,
          51.022225
        ]
      }
    },
    {
      "type": "Feature",
      "properties": {
        "number": "de:14612:162",
        "nameWithCity": "Dresden Kotteweg",
        "name": "Kotteweg",
        "city": "Dresden",
        "tariffZone1": "0100",
        "tariffZone2": "",
        "tariffZone3": ""
      },
      "geometry": {
        "type": "Point",
        "coordinates": [
          13.710347,
          51.02169
        ]
      }
    },
    {
      "type": "Feature",
      "properties": {
        "number": "de:14612:163",
        "nameWithCity": "Dresden Saarstraße",
        "name": "Saarstraße",
        "city": "Dresden",
        "tariffZone1": "0100",
        "tariffZone2": "",
        "tariffZone3": ""
      },
      "geometry": {
        "type": "Point",
        "coordinates": [
          13.706133,
          51.019109
        ]
      }
    },
    {
      "type": "Feature",
      "properties": {
        "number": "de:14612:164",
        "nameWithCity": "Dresden Achtbeeteweg",
        "name": "Achtbeeteweg",
        "city": "Dresden",
        "tariffZone1": "0100",
        "tariffZone2": "0610",
        "tariffZone3": ""
      },
      "geometry": {
        "type": "Point",
        "coordinates": [
          13.700946,
          51.016416
        ]
      }
    },
    {
      "type": "Feature",
      "properties": {
        "number": "de:14612:165",
        "nameWithCity": "Dresden Coschütz",
        "name": "Coschütz",
        "city": "Dresden",
        "tariffZone1": "0100",
        "tariffZone2": "0610",
        "tariffZone3": ""
      },
      "geometry": {
        "type": "Point",
        "coordinates": [
          13.698672,
          51.015811
        ]
      }
    },
    {
      "type": "Feature",
      "properties": {
        "number": "de:14612:166",
        "nameWithCity": "Dresden Hp Plauen",
        "name": "Hp Plauen",
        "city": "Dresden",
        "tariffZone1": "0103",
        "tariffZone2": "0104",
        "tariffZone3": ""
      },
      "geometry": {
        "type": "Point",
        "coordinates": [
          13.703303,
          51.029776
        ]
      }
    },
    {
      "type": "Feature",
      "properties": {
        "number": "de:14612:171",
        "nameWithCity": "Dresden Semmelweisstraße",
        "name": "Semmelweisstraße",
        "city": "Dresden",
        "tariffZone1": "0100",
        "tariffZone2": "",
        "tariffZone3": ""
      },
      "geometry": {
        "type": "Point",
        "coordinates": [
          13.706062,
          51.051329
        ]
      }
    },
    {
      "type": "Feature",
      "properties": {
        "number": "de:14612:172",
        "nameWithCity": "Dresden Burgkstraße",
        "name": "Burgkstraße",
        "city": "Dresden",
        "tariffZone1": "0100",
        "tariffZone2": "",
        "tariffZone3": ""
      },
      "geometry": {
        "type": "Point",
        "coordinates": [
          13.696351,
          51.049025
        ]
      }
    },
    {
      "type": "Feature",
      "properties": {
        "number": "de:14612:173",
        "nameWithCity": "Dresden Pennricher Straße",
        "name": "Pennricher Straße",
        "city": "Dresden",
        "tariffZone1": "0100",
        "tariffZone2": "",
        "tariffZone3": ""
      },
      "geometry": {
        "type": "Point",
        "coordinates": [
          13.692088,
          51.049069
        ]
      }
    },
    {
      "type": "Feature",
      "properties": {
        "number": "de:14612:174",
        "nameWithCity": "Dresden Conertplatz",
        "name": "Conertplatz",
        "city": "Dresden",
        "tariffZone1": "0100",
        "tariffZone2": "",
        "tariffZone3": ""
      },
      "geometry": {
        "type": "Point",
        "coordinates": [
          13.693159,
          51.045979
        ]
      }
    },
    {
      "type": "Feature",
      "properties": {
        "number": "de:14612:175",
        "nameWithCity": "Dresden Birkenhainer Straße",
        "name": "Birkenhainer Straße",
        "city": "Dresden",
        "tariffZone1": "0100",
        "tariffZone2": "",
        "tariffZone3": ""
      },
      "geometry": {
        "type": "Point",
        "coordinates": [
          13.690936,
          51.053059
        ]
      }
    },
    {
      "type": "Feature",
      "properties": {
        "number": "de:14612:176",
        "nameWithCity": "Dresden Altcotta",
        "name": "Altcotta",
        "city": "Dresden",
        "tariffZone1": "0100",
        "tariffZone2": "",
        "tariffZone3": ""
      },
      "geometry": {
        "type": "Point",
        "coordinates": [
          13.687055,
          51.056945
        ]
      }
    },
    {
      "type": "Feature",
      "properties": {
        "number": "de:14612:177",
        "nameWithCity": "Dresden Ockerwitzer Straße",
        "name": "Ockerwitzer Straße",
        "city": "Dresden",
        "tariffZone1": "0100",
        "tariffZone2": "",
        "tariffZone3": ""
      },
      "geometry": {
        "type": "Point",
        "coordinates": [
          13.684296,
          51.058756
        ]
      }
    },
    {
      "type": "Feature",
      "properties": {
        "number": "de:14612:178",
        "nameWithCity": "Dresden Chamissostraße",
        "name": "Chamissostraße",
        "city": "Dresden",
        "tariffZone1": "0100",
        "tariffZone2": "",
        "tariffZone3": ""
      },
      "geometry": {
        "type": "Point",
        "coordinates": [
          13.687874,
          51.049256
        ]
      }
    },
    {
      "type": "Feature",
      "properties": {
        "number": "de:14612:179",
        "nameWithCity": "Dresden Hebbelplatz",
        "name": "Hebbelplatz",
        "city": "Dresden",
        "tariffZone1": "0100",
        "tariffZone2": "",
        "tariffZone3": ""
      },
      "geometry": {
        "type": "Point",
        "coordinates": [
          13.682743,
          51.051335
        ]
      }
    },
    {
      "type": "Feature",
      "properties": {
        "number": "de:14612:181",
        "nameWithCity": "DD Krankenhaus Friedrichstadt",
        "name": "Krankenhaus Friedrichstadt",
        "city": "Dresden",
        "tariffZone1": "0100",
        "tariffZone2": "",
        "tariffZone3": ""
      },
      "geometry": {
        "type": "Point",
        "coordinates": [
          13.718203,
          51.05988
        ]
      }
    },
    {
      "type": "Feature",
      "properties": {
        "number": "de:14612:182",
        "nameWithCity": "Dresden Vorwerkstraße",
        "name": "Vorwerkstraße",
        "city": "Dresden",
        "tariffZone1": "0100",
        "tariffZone2": "",
        "tariffZone3": ""
      },
      "geometry": {
        "type": "Point",
        "coordinates": [
          13.714578,
          51.061012
        ]
      }
    },
    {
      "type": "Feature",
      "properties": {
        "number": "de:14612:183",
        "nameWithCity": "DD Betriebshof Waltherstraße",
        "name": ";hof Waltherstraße",
        "city": "Dresden",
        "tariffZone1": "0100",
        "tariffZone2": "",
        "tariffZone3": ""
      },
      "geometry": {
        "type": "Point",
        "coordinates": [
          13.7119,
          51.060341
        ]
      }
    },
    {
      "type": "Feature",
      "properties": {
        "number": "de:14612:184",
        "nameWithCity": "Dresden Manitiusstraße",
        "name": "Manitiusstraße",
        "city": "Dresden",
        "tariffZone1": "0100",
        "tariffZone2": "",
        "tariffZone3": ""
      },
      "geometry": {
        "type": "Point",
        "coordinates": [
          13.714685,
          51.05657
        ]
      }
    },
    {
      "type": "Feature",
      "properties": {
        "number": "de:14612:185",
        "nameWithCity": "Dresden Waltherstraße",
        "name": "Waltherstraße",
        "city": "Dresden",
        "tariffZone1": "0100",
        "tariffZone2": "",
        "tariffZone3": ""
      },
      "geometry": {
        "type": "Point",
        "coordinates": [
          13.710064,
          51.058121
        ]
      }
    },
    {
      "type": "Feature",
      "properties": {
        "number": "de:14612:186",
        "nameWithCity": "Dresden Hamburger Straße",
        "name": "Hamburger Straße",
        "city": "Dresden",
        "tariffZone1": "0100",
        "tariffZone2": "",
        "tariffZone3": ""
      },
      "geometry": {
        "type": "Point",
        "coordinates": [
          13.701603,
          51.059233
        ]
      }
    },
    {
      "type": "Feature",
      "properties": {
        "number": "de:14612:187",
        "nameWithCity": "Dresden Bremer Straße",
        "name": "Bremer Straße",
        "city": "Dresden",
        "tariffZone1": "0100",
        "tariffZone2": "",
        "tariffZone3": ""
      },
      "geometry": {
        "type": "Point",
        "coordinates": [
          13.694836,
          51.060653
        ]
      }
    },
    {
      "type": "Feature",
      "properties": {
        "number": "de:14612:188",
        "nameWithCity": "Dresden Flügelweg",
        "name": "Flügelweg",
        "city": "Dresden",
        "tariffZone1": "0100",
        "tariffZone2": "",
        "tariffZone3": ""
      },
      "geometry": {
        "type": "Point",
        "coordinates": [
          13.690361,
          51.061545
        ]
      }
    },
    {
      "type": "Feature",
      "properties": {
        "number": "de:14612:189",
        "nameWithCity": "DD Cossebauder Str (Hp Cotta)",
        "name": "Cossebauder Straße (Hp Cotta)",
        "city": "Dresden",
        "tariffZone1": "0100",
        "tariffZone2": "",
        "tariffZone3": ""
      },
      "geometry": {
        "type": "Point",
        "coordinates": [
          13.680854,
          51.061781
        ]
      }
    },
    {
      "type": "Feature",
      "properties": {
        "number": "de:14612:190",
        "nameWithCity": "Dresden Gottfried-Keller-Str.",
        "name": "Gottfried-Keller-Straße",
        "city": "Dresden",
        "tariffZone1": "0100",
        "tariffZone2": "",
        "tariffZone3": ""
      },
      "geometry": {
        "type": "Point",
        "coordinates": [
          13.67773,
          51.060999
        ]
      }
    },
    {
      "type": "Feature",
      "properties": {
        "number": "de:14612:191",
        "nameWithCity": "Dresden Leutewitz",
        "name": "Leutewitz",
        "city": "Dresden",
        "tariffZone1": "0100",
        "tariffZone2": "",
        "tariffZone3": ""
      },
      "geometry": {
        "type": "Point",
        "coordinates": [
          13.67047,
          51.059431
        ]
      }
    },
    {
      "type": "Feature",
      "properties": {
        "number": "de:14612:192",
        "nameWithCity": "Dresden Bahnhof Friedrichstadt",
        "name": "Bahnhof Friedrichstadt",
        "city": "Dresden",
        "tariffZone1": "0100",
        "tariffZone2": "",
        "tariffZone3": ""
      },
      "geometry": {
        "type": "Point",
        "coordinates": [
          13.708391,
          51.056087
        ]
      }
    },
    {
      "type": "Feature",
      "properties": {
        "number": "de:14612:193",
        "nameWithCity": "Dresden Hp Cotta",
        "name": "Hp Cotta",
        "city": "Dresden",
        "tariffZone1": "0105",
        "tariffZone2": "",
        "tariffZone3": ""
      },
      "geometry": {
        "type": "Point",
        "coordinates": [
          13.683391,
          51.062122
        ]
      }
    },
    {
      "type": "Feature",
      "properties": {
        "number": "de:14612:197",
        "nameWithCity": "Dresden Koreanischer Platz",
        "name": "Koreanischer Platz",
        "city": "Dresden",
        "tariffZone1": "0100",
        "tariffZone2": "",
        "tariffZone3": ""
      },
      "geometry": {
        "type": "Point",
        "coordinates": [
          13.720139,
          51.054764
        ]
      }
    },
    {
      "type": "Feature",
      "properties": {
        "number": "de:14612:198",
        "nameWithCity": "Dresden Bf Neustadt (Hansastr)",
        "name": "Bf Neustadt (Hansastr)",
        "city": "Dresden",
        "tariffZone1": "0100",
        "tariffZone2": "",
        "tariffZone3": ""
      },
      "geometry": {
        "type": "Point",
        "coordinates": [
          13.739117,
          51.066376
        ]
      }
    },
    {
      "type": "Feature",
      "properties": {
        "number": "de:14612:199",
        "nameWithCity": "Dresden Eisenbahnstraße",
        "name": "Eisenbahnstraße",
        "city": "Dresden",
        "tariffZone1": "0100",
        "tariffZone2": "",
        "tariffZone3": ""
      },
      "geometry": {
        "type": "Point",
        "coordinates": [
          13.737805,
          51.064867
        ]
      }
    },
    {
      "type": "Feature",
      "properties": {
        "number": "de:14612:200",
        "nameWithCity": "Dresden Altpieschen",
        "name": "Altpieschen",
        "city": "Dresden",
        "tariffZone1": "0100",
        "tariffZone2": "",
        "tariffZone3": ""
      },
      "geometry": {
        "type": "Point",
        "coordinates": [
          13.717125,
          51.077381
        ]
      }
    },
    {
      "type": "Feature",
      "properties": {
        "number": "de:14612:201",
        "nameWithCity": "Dresden Alter Schlachthof",
        "name": "Alter Schlachthof",
        "city": "Dresden",
        "tariffZone1": "0100",
        "tariffZone2": "",
        "tariffZone3": ""
      },
      "geometry": {
        "type": "Point",
        "coordinates": [
          13.731641,
          51.067916
        ]
      }
    },
    {
      "type": "Feature",
      "properties": {
        "number": "de:14612:202",
        "nameWithCity": "Dresden Alexander-Puschkin-Pl",
        "name": "Alexander-Puschkin-Platz",
        "city": "Dresden",
        "tariffZone1": "0100",
        "tariffZone2": "",
        "tariffZone3": ""
      },
      "geometry": {
        "type": "Point",
        "coordinates": [
          13.72857,
          51.070874
        ]
      }
    },
    {
      "type": "Feature",
      "properties": {
        "number": "de:14612:203",
        "nameWithCity": "Dresden Oschatzer Straße",
        "name": "Oschatzer Straße",
        "city": "Dresden",
        "tariffZone1": "0100",
        "tariffZone2": "",
        "tariffZone3": ""
      },
      "geometry": {
        "type": "Point",
        "coordinates": [
          13.723068,
          51.074507
        ]
      }
    },
    {
      "type": "Feature",
      "properties": {
        "number": "de:14612:205",
        "nameWithCity": "Dresden Mickten",
        "name": "Mickten",
        "city": "Dresden",
        "tariffZone1": "0106",
        "tariffZone2": "",
        "tariffZone3": ""
      },
      "geometry": {
        "type": "Point",
        "coordinates": [
          13.71391,
          51.080377
        ]
      }
    },
    {
      "type": "Feature",
      "properties": {
        "number": "de:14612:206",
        "nameWithCity": "Dresden Trachauer Straße",
        "name": "Trachauer Straße",
        "city": "Dresden",
        "tariffZone1": "0100",
        "tariffZone2": "",
        "tariffZone3": ""
      },
      "geometry": {
        "type": "Point",
        "coordinates": [
          13.70812,
          51.078924
        ]
      }
    },
    {
      "type": "Feature",
      "properties": {
        "number": "de:14612:207",
        "nameWithCity": "Dresden Rethelstraße",
        "name": "Rethelstraße",
        "city": "Dresden",
        "tariffZone1": "0100",
        "tariffZone2": "",
        "tariffZone3": ""
      },
      "geometry": {
        "type": "Point",
        "coordinates": [
          13.698695,
          51.074495
        ]
      }
    },
    {
      "type": "Feature",
      "properties": {
        "number": "de:14612:209",
        "nameWithCity": "Dresden Alttrachau",
        "name": "Alttrachau",
        "city": "Dresden",
        "tariffZone1": "0106",
        "tariffZone2": "",
        "tariffZone3": ""
      },
      "geometry": {
        "type": "Point",
        "coordinates": [
          13.709004,
          51.084341
        ]
      }
    },
    {
      "type": "Feature",
      "properties": {
        "number": "de:14612:210",
        "nameWithCity": "Dresden Rankestraße",
        "name": "Rankestraße",
        "city": "Dresden",
        "tariffZone1": "0106",
        "tariffZone2": "",
        "tariffZone3": ""
      },
      "geometry": {
        "type": "Point",
        "coordinates": [
          13.704807,
          51.085859
        ]
      }
    },
    {
      "type": "Feature",
      "properties": {
        "number": "de:14612:211",
        "nameWithCity": "Dresden Am Trachauer Bahnhof",
        "name": "Am Trachauer Bahnhof",
        "city": "Dresden",
        "tariffZone1": "0106",
        "tariffZone2": "",
        "tariffZone3": ""
      },
      "geometry": {
        "type": "Point",
        "coordinates": [
          13.703422,
          51.088576
        ]
      }
    },
    {
      "type": "Feature",
      "properties": {
        "number": "de:14612:212",
        "nameWithCity": "Dresden Geblerstraße",
        "name": "Geblerstraße",
        "city": "Dresden",
        "tariffZone1": "0106",
        "tariffZone2": "",
        "tariffZone3": ""
      },
      "geometry": {
        "type": "Point",
        "coordinates": [
          13.702569,
          51.090215
        ]
      }
    },
    {
      "type": "Feature",
      "properties": {
        "number": "de:14612:213",
        "nameWithCity": "Dresden Kleestraße",
        "name": "Kleestraße",
        "city": "Dresden",
        "tariffZone1": "0106",
        "tariffZone2": "",
        "tariffZone3": ""
      },
      "geometry": {
        "type": "Point",
        "coordinates": [
          13.699735,
          51.092351
        ]
      }
    },
    {
      "type": "Feature",
      "properties": {
        "number": "de:14612:214",
        "nameWithCity": "Dresden Scharfenberger Straße",
        "name": "Scharfenberger Straße",
        "city": "Dresden",
        "tariffZone1": "0100",
        "tariffZone2": "",
        "tariffZone3": ""
      },
      "geometry": {
        "type": "Point",
        "coordinates": [
          13.693884,
          51.074034
        ]
      }
    },
    {
      "type": "Feature",
      "properties": {
        "number": "de:14612:217",
        "nameWithCity": "Dresden An der Flutrinne",
        "name": "An der Flutrinne",
        "city": "Dresden",
        "tariffZone1": "0100",
        "tariffZone2": "",
        "tariffZone3": ""
      },
      "geometry": {
        "type": "Point",
        "coordinates": [
          13.699079,
          51.077177
        ]
      }
    },
    {
      "type": "Feature",
      "properties": {
        "number": "de:14612:218",
        "nameWithCity": "Dresden Sörnewitzer Straße",
        "name": "Sörnewitzer Straße",
        "city": "Dresden",
        "tariffZone1": "0100",
        "tariffZone2": "",
        "tariffZone3": ""
      },
      "geometry": {
        "type": "Point",
        "coordinates": [
          13.697135,
          51.079822
        ]
      }
    },
    {
      "type": "Feature",
      "properties": {
        "number": "de:14612:220",
        "nameWithCity": "Dresden Washingtonstraße",
        "name": "Washingtonstraße",
        "city": "Dresden",
        "tariffZone1": "0106",
        "tariffZone2": "",
        "tariffZone3": ""
      },
      "geometry": {
        "type": "Point",
        "coordinates": [
          13.691259,
          51.08228
        ]
      }
    },
    {
      "type": "Feature",
      "properties": {
        "number": "de:14612:237",
        "nameWithCity": "DD Großenhainer/F.-Reuter-Str.",
        "name": "Großenhainer/F.-Reuter-Str.",
        "city": "Dresden",
        "tariffZone1": "0100",
        "tariffZone2": "",
        "tariffZone3": ""
      },
      "geometry": {
        "type": "Point",
        "coordinates": [
          13.73471,
          51.075197
        ]
      }
    },
    {
      "type": "Feature",
      "properties": {
        "number": "de:14612:239",
        "nameWithCity": "Dresden Liststr (Harkortstr)",
        "name": "Liststraße (Harkortstraße)",
        "city": "Dresden",
        "tariffZone1": "0100",
        "tariffZone2": "",
        "tariffZone3": ""
      },
      "geometry": {
        "type": "Point",
        "coordinates": [
          13.7314,
          51.077134
        ]
      }
    },
    {
      "type": "Feature",
      "properties": {
        "number": "de:14612:241",
        "nameWithCity": "Dresden Lößnitzstraße",
        "name": "Lößnitzstraße",
        "city": "Dresden",
        "tariffZone1": "0100",
        "tariffZone2": "",
        "tariffZone3": ""
      },
      "geometry": {
        "type": "Point",
        "coordinates": [
          13.738203,
          51.069419
        ]
      }
    },
    {
      "type": "Feature",
      "properties": {
        "number": "de:14612:242",
        "nameWithCity": "Dresden Großenhainer Platz",
        "name": "Großenhainer Platz",
        "city": "Dresden",
        "tariffZone1": "0100",
        "tariffZone2": "",
        "tariffZone3": ""
      },
      "geometry": {
        "type": "Point",
        "coordinates": [
          13.735759,
          51.072737
        ]
      }
    },
    {
      "type": "Feature",
      "properties": {
        "number": "de:14612:243",
        "nameWithCity": "Dresden Liststraße",
        "name": "Liststraße",
        "city": "Dresden",
        "tariffZone1": "0100",
        "tariffZone2": "",
        "tariffZone3": ""
      },
      "geometry": {
        "type": "Point",
        "coordinates": [
          13.733008,
          51.076616
        ]
      }
    },
    {
      "type": "Feature",
      "properties": {
        "number": "de:14612:244",
        "nameWithCity": "Dresden Bürgerstraße",
        "name": "Bürgerstraße",
        "city": "Dresden",
        "tariffZone1": "0100",
        "tariffZone2": "",
        "tariffZone3": ""
      },
      "geometry": {
        "type": "Point",
        "coordinates": [
          13.725569,
          51.076897
        ]
      }
    },
    {
      "type": "Feature",
      "properties": {
        "number": "de:14612:245",
        "nameWithCity": "Dresden Rathaus Pieschen",
        "name": "Rathaus Pieschen",
        "city": "Dresden",
        "tariffZone1": "0100",
        "tariffZone2": "",
        "tariffZone3": ""
      },
      "geometry": {
        "type": "Point",
        "coordinates": [
          13.721748,
          51.077376
        ]
      }
    },
    {
      "type": "Feature",
      "properties": {
        "number": "de:14612:246",
        "nameWithCity": "Dresden Friedensstraße",
        "name": "Friedensstraße",
        "city": "Dresden",
        "tariffZone1": "0100",
        "tariffZone2": "",
        "tariffZone3": ""
      },
      "geometry": {
        "type": "Point",
        "coordinates": [
          13.74088,
          51.073434
        ]
      }
    },
    {
      "type": "Feature",
      "properties": {
        "number": "de:14612:247",
        "nameWithCity": "Dresden Bischofsplatz",
        "name": "Bischofsplatz",
        "city": "Dresden",
        "tariffZone1": "0100",
        "tariffZone2": "",
        "tariffZone3": ""
      },
      "geometry": {
        "type": "Point",
        "coordinates": [
          13.746874,
          51.07196
        ]
      }
    },
    {
      "type": "Feature",
      "properties": {
        "number": "de:14612:248",
        "nameWithCity": "Dresden Zeithainer Straße",
        "name": "Zeithainer Straße",
        "city": "Dresden",
        "tariffZone1": "0100",
        "tariffZone2": "",
        "tariffZone3": ""
      },
      "geometry": {
        "type": "Point",
        "coordinates": [
          13.730389,
          51.082157
        ]
      }
    },
    {
      "type": "Feature",
      "properties": {
        "number": "de:14612:249",
        "nameWithCity": "Dresden Trachenberger Platz",
        "name": "Trachenberger Platz",
        "city": "Dresden",
        "tariffZone1": "0100",
        "tariffZone2": "",
        "tariffZone3": ""
      },
      "geometry": {
        "type": "Point",
        "coordinates": [
          13.727798,
          51.084631
        ]
      }
    },
    {
      "type": "Feature",
      "properties": {
        "number": "de:14612:250",
        "nameWithCity": "Dresden Btf Trachenberge",
        "name": ";hof Trachenberge",
        "city": "Dresden",
        "tariffZone1": "0100",
        "tariffZone2": "",
        "tariffZone3": ""
      },
      "geometry": {
        "type": "Point",
        "coordinates": [
          13.729499,
          51.087375
        ]
      }
    },
    {
      "type": "Feature",
      "properties": {
        "number": "de:14612:251",
        "nameWithCity": "Dresden Hubertusplatz",
        "name": "Hubertusplatz",
        "city": "Dresden",
        "tariffZone1": "0100",
        "tariffZone2": "",
        "tariffZone3": ""
      },
      "geometry": {
        "type": "Point",
        "coordinates": [
          13.723317,
          51.089633
        ]
      }
    },
    {
      "type": "Feature",
      "properties": {
        "number": "de:14612:252",
        "nameWithCity": "Dresden Dorothea-Erxleben-Str",
        "name": "Dorothea-Erxleben-Straße",
        "city": "Dresden",
        "tariffZone1": "0100",
        "tariffZone2": "",
        "tariffZone3": ""
      },
      "geometry": {
        "type": "Point",
        "coordinates": [
          13.720627,
          51.092926
        ]
      }
    },
    {
      "type": "Feature",
      "properties": {
        "number": "de:14612:253",
        "nameWithCity": "Dresden Wilder Mann",
        "name": "Wilder Mann",
        "city": "Dresden",
        "tariffZone1": "0106",
        "tariffZone2": "",
        "tariffZone3": ""
      },
      "geometry": {
        "type": "Point",
        "coordinates": [
          13.719248,
          51.095769
        ]
      }
    },
    {
      "type": "Feature",
      "properties": {
        "number": "de:14612:259",
        "nameWithCity": "Dresden Tannenstraße",
        "name": "Tannenstraße",
        "city": "Dresden",
        "tariffZone1": "0100",
        "tariffZone2": "",
        "tariffZone3": ""
      },
      "geometry": {
        "type": "Point",
        "coordinates": [
          13.752864,
          51.073758
        ]
      }
    },
    {
      "type": "Feature",
      "properties": {
        "number": "de:14612:260",
        "nameWithCity": "Dresden Dammweg",
        "name": "Dammweg",
        "city": "Dresden",
        "tariffZone1": "0100",
        "tariffZone2": "",
        "tariffZone3": ""
      },
      "geometry": {
        "type": "Point",
        "coordinates": [
          13.745351,
          51.06827
        ]
      }
    },
    {
      "type": "Feature",
      "properties": {
        "number": "de:14612:261",
        "nameWithCity": "Dresden Louisenstraße",
        "name": "Louisenstraße",
        "city": "Dresden",
        "tariffZone1": "0100",
        "tariffZone2": "",
        "tariffZone3": ""
      },
      "geometry": {
        "type": "Point",
        "coordinates": [
          13.747637,
          51.067957
        ]
      }
    },
    {
      "type": "Feature",
      "properties": {
        "number": "de:14612:262",
        "nameWithCity": "Dresden Bischofsweg",
        "name": "Bischofsweg",
        "city": "Dresden",
        "tariffZone1": "0100",
        "tariffZone2": "",
        "tariffZone3": ""
      },
      "geometry": {
        "type": "Point",
        "coordinates": [
          13.750735,
          51.071425
        ]
      }
    },
    {
      "type": "Feature",
      "properties": {
        "number": "de:14612:263",
        "nameWithCity": "Dresden Alaunplatz",
        "name": "Alaunplatz",
        "city": "Dresden",
        "tariffZone1": "0100",
        "tariffZone2": "",
        "tariffZone3": ""
      },
      "geometry": {
        "type": "Point",
        "coordinates": [
          13.755501,
          51.069916
        ]
      }
    },
    {
      "type": "Feature",
      "properties": {
        "number": "de:14612:264",
        "nameWithCity": "Dresden Görlitzer Straße",
        "name": "Görlitzer Straße",
        "city": "Dresden",
        "tariffZone1": "0100",
        "tariffZone2": "",
        "tariffZone3": ""
      },
      "geometry": {
        "type": "Point",
        "coordinates": [
          13.753702,
          51.066104
        ]
      }
    },
    {
      "type": "Feature",
      "properties": {
        "number": "de:14612:265",
        "nameWithCity": "Dresden Stauffenbergallee",
        "name": "Stauffenbergallee",
        "city": "Dresden",
        "tariffZone1": "0100",
        "tariffZone2": "",
        "tariffZone3": ""
      },
      "geometry": {
        "type": "Point",
        "coordinates": [
          13.755541,
          51.076621
        ]
      }
    },
    {
      "type": "Feature",
      "properties": {
        "number": "de:14612:266",
        "nameWithCity": "Dresden Heeresbäckerei",
        "name": "Heeresbäckerei",
        "city": "Dresden",
        "tariffZone1": "0100",
        "tariffZone2": "",
        "tariffZone3": ""
      },
      "geometry": {
        "type": "Point",
        "coordinates": [
          13.760264,
          51.081881
        ]
      }
    },
    {
      "type": "Feature",
      "properties": {
        "number": "de:14612:267",
        "nameWithCity": "Dresden Industriegelände",
        "name": "Industriegelände",
        "city": "Dresden",
        "tariffZone1": "0100",
        "tariffZone2": "",
        "tariffZone3": ""
      },
      "geometry": {
        "type": "Point",
        "coordinates": [
          13.76302,
          51.086784
        ]
      }
    },
    {
      "type": "Feature",
      "properties": {
        "number": "de:14612:268",
        "nameWithCity": "Dresden Hellersiedlung",
        "name": "Hellersiedlung",
        "city": "Dresden",
        "tariffZone1": "0100",
        "tariffZone2": "",
        "tariffZone3": ""
      },
      "geometry": {
        "type": "Point",
        "coordinates": [
          13.766028,
          51.093049
        ]
      }
    },
    {
      "type": "Feature",
      "properties": {
        "number": "de:14612:269",
        "nameWithCity": "Dresden Moritzburger Weg",
        "name": "Moritzburger Weg",
        "city": "Dresden",
        "tariffZone1": "0100",
        "tariffZone2": "",
        "tariffZone3": ""
      },
      "geometry": {
        "type": "Point",
        "coordinates": [
          13.768829,
          51.099111
        ]
      }
    },
    {
      "type": "Feature",
      "properties": {
        "number": "de:14612:270",
        "nameWithCity": "Dresden Infineon Süd",
        "name": "Infineon Süd",
        "city": "Dresden",
        "tariffZone1": "0100",
        "tariffZone2": "",
        "tariffZone3": ""
      },
      "geometry": {
        "type": "Point",
        "coordinates": [
          13.770191,
          51.10301
        ]
      }
    },
    {
      "type": "Feature",
      "properties": {
        "number": "de:14612:271",
        "nameWithCity": "Dresden Am Hellerrand",
        "name": "Am Hellerrand",
        "city": "Dresden",
        "tariffZone1": "0100",
        "tariffZone2": "",
        "tariffZone3": ""
      },
      "geometry": {
        "type": "Point",
        "coordinates": [
          13.763232,
          51.110747
        ]
      }
    },
    {
      "type": "Feature",
      "properties": {
        "number": "de:14612:272",
        "nameWithCity": "Dresden Heinrich-Tessenow-Weg",
        "name": "Heinrich-Tessenow-Weg",
        "city": "Dresden",
        "tariffZone1": "0100",
        "tariffZone2": "",
        "tariffZone3": ""
      },
      "geometry": {
        "type": "Point",
        "coordinates": [
          13.759518,
          51.112601
        ]
      }
    },
    {
      "type": "Feature",
      "properties": {
        "number": "de:14612:273",
        "nameWithCity": "Dresden Festspielhaus Hellerau",
        "name": "Festspielhaus Hellerau",
        "city": "Dresden",
        "tariffZone1": "0100",
        "tariffZone2": "",
        "tariffZone3": ""
      },
      "geometry": {
        "type": "Point",
        "coordinates": [
          13.751092,
          51.112602
        ]
      }
    },
    {
      "type": "Feature",
      "properties": {
        "number": "de:14612:274",
        "nameWithCity": "Dresden Brunnenweg",
        "name": "Brunnenweg",
        "city": "Dresden",
        "tariffZone1": "0100",
        "tariffZone2": "",
        "tariffZone3": ""
      },
      "geometry": {
        "type": "Point",
        "coordinates": [
          13.746135,
          51.115588
        ]
      }
    },
    {
      "type": "Feature",
      "properties": {
        "number": "de:14612:275",
        "nameWithCity": "Dresden Hellerau Kiefernweg",
        "name": "Hellerau Kiefernweg",
        "city": "Dresden",
        "tariffZone1": "0100",
        "tariffZone2": "",
        "tariffZone3": ""
      },
      "geometry": {
        "type": "Point",
        "coordinates": [
          13.740695,
          51.116784
        ]
      }
    },
    {
      "type": "Feature",
      "properties": {
        "number": "de:14612:276",
        "nameWithCity": "Dresden Infineon Nord",
        "name": "Infineon Nord",
        "city": "Dresden",
        "tariffZone1": "0100",
        "tariffZone2": "",
        "tariffZone3": ""
      },
      "geometry": {
        "type": "Point",
        "coordinates": [
          13.772865,
          51.10759
        ]
      }
    },
    {
      "type": "Feature",
      "properties": {
        "number": "de:14612:277",
        "nameWithCity": "Dresden Karl-Marx-Straße",
        "name": "Karl-Marx-Straße",
        "city": "Dresden",
        "tariffZone1": "0100",
        "tariffZone2": "",
        "tariffZone3": ""
      },
      "geometry": {
        "type": "Point",
        "coordinates": [
          13.775766,
          51.110611
        ]
      }
    },
    {
      "type": "Feature",
      "properties": {
        "number": "de:14612:278",
        "nameWithCity": "Dresden Zur Neuen Brücke",
        "name": "Zur Neuen Brücke",
        "city": "Dresden",
        "tariffZone1": "0107",
        "tariffZone2": "",
        "tariffZone3": ""
      },
      "geometry": {
        "type": "Point",
        "coordinates": [
          13.784064,
          51.11435
        ]
      }
    },
    {
      "type": "Feature",
      "properties": {
        "number": "de:14612:279",
        "nameWithCity": "Dresden Käthe-Kollwitz-Platz",
        "name": "Käthe-Kollwitz-Platz",
        "city": "Dresden",
        "tariffZone1": "0107",
        "tariffZone2": "",
        "tariffZone3": ""
      },
      "geometry": {
        "type": "Point",
        "coordinates": [
          13.789508,
          51.118474
        ]
      }
    },
    {
      "type": "Feature",
      "properties": {
        "number": "de:14612:280",
        "nameWithCity": "Dresden Arkonastraße",
        "name": "Arkonastraße",
        "city": "Dresden",
        "tariffZone1": "0107",
        "tariffZone2": "",
        "tariffZone3": ""
      },
      "geometry": {
        "type": "Point",
        "coordinates": [
          13.791219,
          51.123195
        ]
      }
    },
    {
      "type": "Feature",
      "properties": {
        "number": "de:14612:281",
        "nameWithCity": "DD Industriepark Klotzsche",
        "name": "Industriepark Klotzsche",
        "city": "Dresden",
        "tariffZone1": "0107",
        "tariffZone2": "",
        "tariffZone3": ""
      },
      "geometry": {
        "type": "Point",
        "coordinates": [
          13.792644,
          51.127533
        ]
      }
    },
    {
      "type": "Feature",
      "properties": {
        "number": "de:14612:282",
        "nameWithCity": "Dresden Diebsteig",
        "name": "Diebsteig",
        "city": "Dresden",
        "tariffZone1": "0100",
        "tariffZone2": "",
        "tariffZone3": ""
      },
      "geometry": {
        "type": "Point",
        "coordinates": [
          13.76592,
          51.0951
        ]
      }
    },
    {
      "type": "Feature",
      "properties": {
        "number": "de:14612:287",
        "nameWithCity": "Dresden Hans-Oster-Straße",
        "name": "Hans-Oster-Straße",
        "city": "Dresden",
        "tariffZone1": "0100",
        "tariffZone2": "",
        "tariffZone3": ""
      },
      "geometry": {
        "type": "Point",
        "coordinates": [
          13.760656,
          51.074908
        ]
      }
    },
    {
      "type": "Feature",
      "properties": {
        "number": "de:14612:288",
        "nameWithCity": "DD Kleines Haus (Glacisstr.)",
        "name": "Kleines Haus (Glacisstr.)",
        "city": "Dresden",
        "tariffZone1": "0100",
        "tariffZone2": "",
        "tariffZone3": ""
      },
      "geometry": {
        "type": "Point",
        "coordinates": [
          13.750046,
          51.061484
        ]
      }
    },
    {
      "type": "Feature",
      "properties": {
        "number": "de:14612:289",
        "nameWithCity": "Dresden Kamenzer Straße",
        "name": "Kamenzer Straße",
        "city": "Dresden",
        "tariffZone1": "0100",
        "tariffZone2": "",
        "tariffZone3": ""
      },
      "geometry": {
        "type": "Point",
        "coordinates": [
          13.759961,
          51.070136
        ]
      }
    },
    {
      "type": "Feature",
      "properties": {
        "number": "de:14612:290",
        "nameWithCity": "Dresden Pulsnitzer Straße",
        "name": "Pulsnitzer Straße",
        "city": "Dresden",
        "tariffZone1": "0100",
        "tariffZone2": "",
        "tariffZone3": ""
      },
      "geometry": {
        "type": "Point",
        "coordinates": [
          13.757533,
          51.063296
        ]
      }
    },
    {
      "type": "Feature",
      "properties": {
        "number": "de:14612:291",
        "nameWithCity": "Dresden Diakonissenkrankenhaus",
        "name": "Diakonissenkrankenhaus",
        "city": "Dresden",
        "tariffZone1": "0100",
        "tariffZone2": "",
        "tariffZone3": ""
      },
      "geometry": {
        "type": "Point",
        "coordinates": [
          13.762435,
          51.064264
        ]
      }
    },
    {
      "type": "Feature",
      "properties": {
        "number": "de:14612:292",
        "nameWithCity": "Dresden Nordstraße",
        "name": "Nordstraße",
        "city": "Dresden",
        "tariffZone1": "0100",
        "tariffZone2": "",
        "tariffZone3": ""
      },
      "geometry": {
        "type": "Point",
        "coordinates": [
          13.769368,
          51.066137
        ]
      }
    },
    {
      "type": "Feature",
      "properties": {
        "number": "de:14612:293",
        "nameWithCity": "Dresden Waldschlößchen",
        "name": "Waldschlößchen",
        "city": "Dresden",
        "tariffZone1": "0109",
        "tariffZone2": "",
        "tariffZone3": ""
      },
      "geometry": {
        "type": "Point",
        "coordinates": [
          13.777602,
          51.06728
        ]
      }
    },
    {
      "type": "Feature",
      "properties": {
        "number": "de:14612:294",
        "nameWithCity": "Dresden Angelikastraße",
        "name": "Angelikastraße",
        "city": "Dresden",
        "tariffZone1": "0109",
        "tariffZone2": "",
        "tariffZone3": ""
      },
      "geometry": {
        "type": "Point",
        "coordinates": [
          13.78374,
          51.066998
        ]
      }
    },
    {
      "type": "Feature",
      "properties": {
        "number": "de:14612:295",
        "nameWithCity": "Dresden Wilhelminenstraße",
        "name": "Wilhelminenstraße",
        "city": "Dresden",
        "tariffZone1": "0100",
        "tariffZone2": "",
        "tariffZone3": ""
      },
      "geometry": {
        "type": "Point",
        "coordinates": [
          13.789583,
          51.067196
        ]
      }
    },
    {
      "type": "Feature",
      "properties": {
        "number": "de:14612:296",
        "nameWithCity": "Dresden Elbschlösser",
        "name": "Elbschlösser",
        "city": "Dresden",
        "tariffZone1": "0100",
        "tariffZone2": "",
        "tariffZone3": ""
      },
      "geometry": {
        "type": "Point",
        "coordinates": [
          13.797767,
          51.065947
        ]
      }
    },
    {
      "type": "Feature",
      "properties": {
        "number": "de:14612:297",
        "nameWithCity": "Dresden Mordgrundbrücke",
        "name": "Mordgrundbrücke",
        "city": "Dresden",
        "tariffZone1": "0100",
        "tariffZone2": "",
        "tariffZone3": ""
      },
      "geometry": {
        "type": "Point",
        "coordinates": [
          13.811699,
          51.064302
        ]
      }
    },
    {
      "type": "Feature",
      "properties": {
        "number": "de:14612:298",
        "nameWithCity": "Dresden Plattleite",
        "name": "Plattleite",
        "city": "Dresden",
        "tariffZone1": "0100",
        "tariffZone2": "",
        "tariffZone3": ""
      },
      "geometry": {
        "type": "Point",
        "coordinates": [
          13.821493,
          51.063763
        ]
      }
    },
    {
      "type": "Feature",
      "properties": {
        "number": "de:14612:299",
        "nameWithCity": "Dresden Am Weißen Adler",
        "name": "Am Weißen Adler",
        "city": "Dresden",
        "tariffZone1": "0100",
        "tariffZone2": "",
        "tariffZone3": ""
      },
      "geometry": {
        "type": "Point",
        "coordinates": [
          13.831263,
          51.061875
        ]
      }
    },